{"name": "Bagsv\u00e6rd", "latitude": 55.7625, "longitude": 12.450833}
{"name": "Oedelem", "latitude": 51.166667, "longitude": 3.333333}
{"name": "Bor-\u00d6nd\u00f6r", "latitude": 46.255833, "longitude": 109.425}
{"name": "Caxias do Sul", "latitude": -29.166667, "longitude": -51.183333}
{"name": "Oymyakon", "latitude": 63.462947, "longitude": 142.786969}
{"name": "Alofi", "latitude": -19.056, "longitude": -169.921}
{"name": "Zermatt", "latitude": 46.0193, "longitude": 7.7461}
{"name": "R\u00f8ros", "latitude": 62.574167, "longitude": 11.383056}
{"name": "Leh", "latitude": 34.164167, "longitude": 77.584722}
{"name": "Tafraoute", "latitude": 29.718767, "longitude": -8.976345}
{"name": "Chachapoyas", "latitude": -6.23, "longitude": -77.87}
{"name": "Erice", "latitude": 38.03785, "longitude": 12.58778}
{"name": "Jomsom", "latitude": 28.783333, "longitude": 83.730556}
{"name": "Zabid", "latitude": 14.2, "longitude": 43.316667}
{"name": "Vang Vieng", "latitude": 18.926667, "longitude": 102.449444}
{"name": "Bovec", "latitude": 46.337778, "longitude": 13.552222}
{"name": "Nizwa", "latitude": 22.933333, "longitude": 57.533333}
{"name": "Rishikesh", "latitude": 30.103368, "longitude": 78.294754}
{"name": "Kazreti", "latitude":  41.386944, "longitude": 44.417222}
{"name": "Iqaluit", "latitude":  63.749444, "longitude": -68.521667}
{"name": "Dakhla", "latitude": 23.716667, "longitude": -15.95}
